[
	{
		"GEO_latitude": 46.06837090000001,
		"GEO_longitude": 10.9817449,
		"GEO_altitude": "",
		"GEO_address": "38070 Santa Massenza, Province of Trento",
		"GEO_addressLocality": "WHAT IS IT??",
		"GEO_addressRegion": "WHAT IS IT???",
		"GEO_postalCode": "38070",
		"GEO_locationText": "Santa Massenza; Centro storico; Vezzano"
	},
	{
		"GEO_latitude": 46.2912024,
		"GEO_longitude": 11.4605662,
		"GEO_altitude": "",
		"GEO_address": "38033 Cavalese, Province of Trento",
		"GEO_addressLocality": "WHAT IS IT??",
		"GEO_addressRegion": "WHAT IS IT???",
		"GEO_postalCode": "38033",
		"GEO_locationText": "Cavalese"
	},
	{
		"FAC_name": "Teatro San Marco",
		"FAC_telephone": "0461 233522",
		"FAC_website": "https://www.teatrosanmarco.it/",
		"FAC_mail": "No email from google to avoid spamming",
		"FAC_hasParking": "",
		"FAC_animalsAllowed": "",
		"FAC_smokingAllowed": "",
		"FAC_isIndoor": "",
		"GEO_latitude": 46.0638188,
		"GEO_longitude": 11.1287118,
		"GEO_altitude": "",
		"GEO_address": "Via S. Bernardino, 10, 38122 Trento TN",
		"GEO_addressLocality": "WHAT IS IT??",
		"GEO_addressRegion": "WHAT IS IT???",
		"GEO_postalCode": "38122",
		"GEO_locationText": "Teatro San Marco; Via San Bernardino"
	},
	{
		"GEO_latitude": 46.2865642,
		"GEO_longitude": 11.5592481,
		"GEO_altitude": "",
		"GEO_address": "38030 Ziano di Fiemme, Province of Trento",
		"GEO_addressLocality": "WHAT IS IT??",
		"GEO_addressRegion": "WHAT IS IT???",
		"GEO_postalCode": "38030",
		"GEO_locationText": "Ziano di Fiemme"
	},
	{
		"GEO_latitude": 46.1925658,
		"GEO_longitude": 11.1618684,
		"GEO_altitude": "",
		"GEO_address": "38010 Faedo, Province of Trento",
		"GEO_addressLocality": "WHAT IS IT??",
		"GEO_addressRegion": "WHAT IS IT???",
		"GEO_postalCode": "38010",
		"GEO_locationText": "Faedo"
	},
	{
		"GEO_latitude": 46.298827,
		"GEO_longitude": 10.811343,
		"GEO_altitude": "",
		"GEO_address": "38020 Marilleva, Province of Trento",
		"GEO_addressLocality": "WHAT IS IT??",
		"GEO_addressRegion": "WHAT IS IT???",
		"GEO_postalCode": "38020",
		"GEO_locationText": "Marilleva"
	},
	{
		"GEO_latitude": 45.8513894,
		"GEO_longitude": 10.9787861,
		"GEO_altitude": "",
		"GEO_address": "38065 Mori, Province of Trento",
		"GEO_addressLocality": "WHAT IS IT??",
		"GEO_addressRegion": "WHAT IS IT???",
		"GEO_postalCode": "38065",
		"GEO_locationText": "Mori"
	},
	{
		"FAC_name": "Bookique",
		"FAC_telephone": "342 701 1498",
		"FAC_website": "https://bookique.net/",
		"FAC_mail": "No email from google to avoid spamming",
		"FAC_hasParking": "",
		"FAC_animalsAllowed": "",
		"FAC_smokingAllowed": "",
		"FAC_isIndoor": "",
		"GEO_latitude": 46.0730057,
		"GEO_longitude": 11.1264776,
		"GEO_altitude": "",
		"GEO_address": "Via Torre D'Augusto, 29, 38122 Trento TN",
		"GEO_addressLocality": "WHAT IS IT??",
		"GEO_addressRegion": "WHAT IS IT???",
		"GEO_postalCode": "38122",
		"GEO_locationText": "Bookique; Via Torre D'Augusto"
	},
	{
		"GEO_latitude": 46.3078419,
		"GEO_longitude": 10.7355513,
		"GEO_altitude": "",
		"GEO_address": "38026 Ossana, Province of Trento",
		"GEO_addressLocality": "WHAT IS IT??",
		"GEO_addressRegion": "WHAT IS IT???",
		"GEO_postalCode": "38026",
		"GEO_locationText": "Ossana"
	},
	{
		"FAC_name": "Brentonico Ski",
		"FAC_telephone": "377 167 8207",
		"FAC_website": "http://www.brentonicoski.com/",
		"FAC_mail": "No email from google to avoid spamming",
		"FAC_hasParking": "",
		"FAC_animalsAllowed": "",
		"FAC_smokingAllowed": "",
		"FAC_isIndoor": "",
		"GEO_latitude": 45.78154,
		"GEO_longitude": 10.941185,
		"GEO_altitude": "",
		"GEO_address": "Piazza Polsa, 1, 38060 Polsa, Brentonico TN",
		"GEO_addressLocality": "WHAT IS IT??",
		"GEO_addressRegion": "WHAT IS IT???",
		"GEO_postalCode": "38060",
		"GEO_locationText": "Polsa, San Valentino"
	},
	{
		"GEO_latitude": 45.9708209,
		"GEO_longitude": 10.9456656,
		"GEO_altitude": "",
		"GEO_address": "38074 Drena, Province of Trento",
		"GEO_addressLocality": "WHAT IS IT??",
		"GEO_addressRegion": "WHAT IS IT???",
		"GEO_postalCode": "38074",
		"GEO_locationText": "Arco, Drena, Dro ..."
	},
	{
		"FAC_name": "City of Pergine Valsugana",
		"FAC_telephone": "0461 502111",
		"FAC_website": "http://www.comune.pergine.tn.it/",
		"FAC_mail": "No email from google to avoid spamming",
		"FAC_hasParking": "",
		"FAC_animalsAllowed": "",
		"FAC_smokingAllowed": "",
		"FAC_isIndoor": "",
		"GEO_latitude": 46.060537,
		"GEO_longitude": 11.2406332,
		"GEO_altitude": "",
		"GEO_address": "Piazza Municipio, 7, 38057 Pergine Valsugana TN",
		"GEO_addressLocality": "WHAT IS IT??",
		"GEO_addressRegion": "WHAT IS IT???",
		"GEO_postalCode": "38057",
		"GEO_locationText": "Centro Storico; Piazza Gavazzi; Pergine Valsugana"
	},
	{
		"FAC_name": "Comune di Tenno",
		"FAC_telephone": "0464 500624",
		"FAC_website": "http://www.comune.tenno.tn.it/",
		"FAC_mail": "No email from google to avoid spamming",
		"FAC_hasParking": "",
		"FAC_animalsAllowed": "",
		"FAC_smokingAllowed": "",
		"FAC_isIndoor": "",
		"GEO_latitude": 45.92024029999999,
		"GEO_longitude": 10.8324822,
		"GEO_altitude": "",
		"GEO_address": "Via Dante Alighieri, 18, 38060 Tenno TN",
		"GEO_addressLocality": "WHAT IS IT??",
		"GEO_addressRegion": "WHAT IS IT???",
		"GEO_postalCode": "38060",
		"GEO_locationText": "centro storico; Via Dante Alighieri; Tenno"
	},
	{
		"GEO_latitude": 45.73277940000001,
		"GEO_longitude": 10.9397993,
		"GEO_altitude": "",
		"GEO_address": "38063 Avio, Trentino, Province of Trento",
		"GEO_addressLocality": "WHAT IS IT??",
		"GEO_addressRegion": "WHAT IS IT???",
		"GEO_postalCode": "38063",
		"GEO_locationText": "Avio"
	},
	{
		"GEO_latitude": 46.1243042,
		"GEO_longitude": 11.2574845,
		"GEO_altitude": "",
		"GEO_address": "38042 Baselga di Pin\u00e8, Province of Trento",
		"GEO_addressLocality": "WHAT IS IT??",
		"GEO_addressRegion": "WHAT IS IT???",
		"GEO_postalCode": "38042",
		"GEO_locationText": "Baselga di Pine'"
	},
	{
		"GEO_latitude": 46.1757686,
		"GEO_longitude": 11.8283805,
		"GEO_altitude": "",
		"GEO_address": "38054 Fiera di Primiero, Province of Trento",
		"GEO_addressLocality": "WHAT IS IT??",
		"GEO_addressRegion": "WHAT IS IT???",
		"GEO_postalCode": "38054",
		"GEO_locationText": "Fiera di Primiero, Primiero - Siror, Primiero - Imer ..."
	},
	{
		"GEO_latitude": 46.0747793,
		"GEO_longitude": 11.1217486,
		"GEO_altitude": "",
		"GEO_address": "Trento, Province of Trento",
		"GEO_addressLocality": "WHAT IS IT??",
		"GEO_addressRegion": "WHAT IS IT???",
		"GEO_postalCode": "",
		"GEO_locationText": "Trento"
	},
	{
		"FAC_name": "The Piedicastello Tunnel",
		"FAC_telephone": "0461 174 7000",
		"FAC_website": "http://fondazione.museostorico.it/index.php/Luoghi/I-luoghi-della-Fondazione/Le-Gallerie",
		"FAC_mail": "No email from google to avoid spamming",
		"FAC_hasParking": "",
		"FAC_animalsAllowed": "",
		"FAC_smokingAllowed": "",
		"FAC_isIndoor": "",
		"GEO_latitude": 46.071672,
		"GEO_longitude": 11.1136268,
		"GEO_altitude": "",
		"GEO_address": "Piazza di Piedicastello, 38122 Trento TN",
		"GEO_addressLocality": "WHAT IS IT??",
		"GEO_addressRegion": "WHAT IS IT???",
		"GEO_postalCode": "38122",
		"GEO_locationText": "Le Gallerie Piedicastello; Via D\u00f2s Trento"
	},
	{
		"GEO_latitude": 46.0716484,
		"GEO_longitude": 11.1149877,
		"GEO_altitude": "",
		"GEO_address": "Vicolo di Piedicastello & Via D\u00f2s Trento, 38122 Trento TN",
		"GEO_addressLocality": "WHAT IS IT??",
		"GEO_addressRegion": "WHAT IS IT???",
		"GEO_postalCode": "38121",
		"GEO_locationText": "Piedicastello; Via D\u00f2s Trento"
	},
	{
		"GEO_latitude": 45.7625639,
		"GEO_longitude": 11.0051732,
		"GEO_altitude": "",
		"GEO_address": "38061 Ala, Province of Trento",
		"GEO_addressLocality": "WHAT IS IT??",
		"GEO_addressRegion": "WHAT IS IT???",
		"GEO_postalCode": "38061",
		"GEO_locationText": "Ala"
	},
	{
		"GEO_latitude": 46.42086339999999,
		"GEO_longitude": 11.6748775,
		"GEO_altitude": "",
		"GEO_address": "38039 Vigo di Fassa, Province of Trento",
		"GEO_addressLocality": "WHAT IS IT??",
		"GEO_addressRegion": "WHAT IS IT???",
		"GEO_postalCode": "38039",
		"GEO_locationText": "Canazei, Moena, Vigo di Fassa"
	},
	{
		"GEO_latitude": 45.9195492,
		"GEO_longitude": 10.8329991,
		"GEO_altitude": "",
		"GEO_address": "38060 Tenno, Province of Trento",
		"GEO_addressLocality": "WHAT IS IT??",
		"GEO_addressRegion": "WHAT IS IT???",
		"GEO_postalCode": "38060",
		"GEO_locationText": "Tenno"
	},
	{
		"FAC_name": "Teatro Comunale di Pergine",
		"FAC_telephone": "0461 534321",
		"FAC_website": "http://www.teatrodipergine.it/",
		"FAC_mail": "No email from google to avoid spamming",
		"FAC_hasParking": "",
		"FAC_animalsAllowed": "",
		"FAC_smokingAllowed": "",
		"FAC_isIndoor": "",
		"GEO_latitude": 46.0622777,
		"GEO_longitude": 11.2390965,
		"GEO_altitude": "",
		"GEO_address": "Piazza Garibaldi, 5G, 38057 Pergine Valsugana TN",
		"GEO_addressLocality": "WHAT IS IT??",
		"GEO_addressRegion": "WHAT IS IT???",
		"GEO_postalCode": "38057",
		"GEO_locationText": "Teatro comunale di Pergine Valsugana; Piazza Garibaldi, 5g; Pergine Valsugana"
	},
	{
		"GEO_latitude": 46.2564381,
		"GEO_longitude": 10.5808235,
		"GEO_altitude": "",
		"GEO_address": "Tonale Pass, 25056 Ponte di Legno, Province of Brescia",
		"GEO_addressLocality": "WHAT IS IT??",
		"GEO_addressRegion": "WHAT IS IT???",
		"GEO_postalCode": "25056",
		"GEO_locationText": "Folgarida, Marilleva, Passo del Tonale ..."
	},
	{
		"FAC_name": "Hotel Garni Laurino",
		"FAC_telephone": "0462 340151",
		"FAC_website": "http://www.hotelgarnilaurino.it/",
		"FAC_mail": "No email from google to avoid spamming",
		"FAC_hasParking": "",
		"FAC_animalsAllowed": "",
		"FAC_smokingAllowed": "",
		"FAC_isIndoor": "",
		"GEO_latitude": 46.2896974,
		"GEO_longitude": 11.4600364,
		"GEO_altitude": "",
		"GEO_address": "Via Antoniazzi, 14, 38033 Cavalese TN",
		"GEO_addressLocality": "WHAT IS IT??",
		"GEO_addressRegion": "WHAT IS IT???",
		"GEO_postalCode": "38033",
		"GEO_locationText": "centro storico; Indirizzo non disponibile; Cavalese"
	},
	{
		"GEO_latitude": 45.9096785,
		"GEO_longitude": 11.1845902,
		"GEO_altitude": "",
		"GEO_address": "38064 Folgaria, Province of Trento",
		"GEO_addressLocality": "WHAT IS IT??",
		"GEO_addressRegion": "WHAT IS IT???",
		"GEO_postalCode": "38064",
		"GEO_locationText": "Folgaria"
	},
	{
		"FAC_name": "Geological Museum of the Dolomites Predazzo",
		"FAC_telephone": "0462 500366",
		"FAC_website": "http://www2.muse.it/museogeologico/",
		"FAC_mail": "No email from google to avoid spamming",
		"FAC_hasParking": "",
		"FAC_animalsAllowed": "",
		"FAC_smokingAllowed": "",
		"FAC_isIndoor": "",
		"GEO_latitude": 46.31214229999999,
		"GEO_longitude": 11.6035392,
		"GEO_altitude": "",
		"GEO_address": "Piazza SS. Filippo e Giacomo, 2, 38037 Predazzo TN",
		"GEO_addressLocality": "WHAT IS IT??",
		"GEO_addressRegion": "WHAT IS IT???",
		"GEO_postalCode": "38037",
		"GEO_locationText": "Museo Geologico delle Dolomiti di Predazzo"
	},
	{
		"FAC_name": "Museum of Modern and Contemporary Art of Trento and Rovereto",
		"FAC_telephone": "0464 438887",
		"FAC_website": "http://www.mart.trento.it/",
		"FAC_mail": "No email from google to avoid spamming",
		"FAC_hasParking": "",
		"FAC_animalsAllowed": "",
		"FAC_smokingAllowed": "",
		"FAC_isIndoor": "",
		"GEO_latitude": 45.8939992,
		"GEO_longitude": 11.0446889,
		"GEO_altitude": "",
		"GEO_address": "Corso Angelo Bettini, 43, 38068 Rovereto TN",
		"GEO_addressLocality": "WHAT IS IT??",
		"GEO_addressRegion": "WHAT IS IT???",
		"GEO_postalCode": "38068",
		"GEO_locationText": "Mart, Area educazione"
	},
	{
		"GEO_latitude": 46.4121956,
		"GEO_longitude": 10.7888809,
		"GEO_altitude": "",
		"GEO_address": "38020 Rabbi, Province of Trento",
		"GEO_addressLocality": "WHAT IS IT??",
		"GEO_addressRegion": "WHAT IS IT???",
		"GEO_postalCode": "38020",
		"GEO_locationText": "Rabbi"
	},
	{
		"GEO_latitude": 46.1757686,
		"GEO_longitude": 11.8283805,
		"GEO_altitude": "",
		"GEO_address": "38054 Fiera di Primiero, Province of Trento",
		"GEO_addressLocality": "WHAT IS IT??",
		"GEO_addressRegion": "WHAT IS IT???",
		"GEO_postalCode": "38054",
		"GEO_locationText": "Primiero - Siror"
	},
	{
		"FAC_name": "Kushi Ling",
		"FAC_telephone": "",
		"FAC_website": "http://www.kushi-ling.com/en/",
		"FAC_mail": "No email from google to avoid spamming",
		"FAC_hasParking": "",
		"FAC_animalsAllowed": "",
		"FAC_smokingAllowed": "",
		"FAC_isIndoor": "",
		"GEO_latitude": 45.9413715,
		"GEO_longitude": 10.8860869,
		"GEO_altitude": "",
		"GEO_address": "38062 Arco, Province of Trento",
		"GEO_addressLocality": "WHAT IS IT??",
		"GEO_addressRegion": "WHAT IS IT???",
		"GEO_postalCode": "38062",
		"GEO_locationText": "Centro di meditazione Kushi Ling; Via Alle Fontane, Loc. Laghel 44; Arco"
	},
	{
		"FAC_name": "Multiplex G. Modena",
		"FAC_telephone": "0461 261819",
		"FAC_website": "http://www.cineworldtrento.it/",
		"FAC_mail": "No email from google to avoid spamming",
		"FAC_hasParking": "",
		"FAC_animalsAllowed": "",
		"FAC_smokingAllowed": "",
		"FAC_isIndoor": "",
		"GEO_latitude": 46.06688049999999,
		"GEO_longitude": 11.1255992,
		"GEO_altitude": "",
		"GEO_address": "Viale S. Francesco d'Assisi, 6, 38122 Trento TN",
		"GEO_addressLocality": "WHAT IS IT??",
		"GEO_addressRegion": "WHAT IS IT???",
		"GEO_postalCode": "38122",
		"GEO_locationText": "Trento - Multisala G. ModenaViale S. F. d\u2019Assisi, 8/a \u2013 Trento"
	},
	{
		"GEO_latitude": 45.81712659999999,
		"GEO_longitude": 10.9495574,
		"GEO_altitude": "",
		"GEO_address": "38060 Brentonico, Province of Trento",
		"GEO_addressLocality": "WHAT IS IT??",
		"GEO_addressRegion": "WHAT IS IT???",
		"GEO_postalCode": "38060",
		"GEO_locationText": "Brentonico"
	},
	{
		"FAC_name": "Teatro Portland",
		"FAC_telephone": "0461 924470",
		"FAC_website": "http://www.teatroportland.it/",
		"FAC_mail": "No email from google to avoid spamming",
		"FAC_hasParking": "",
		"FAC_animalsAllowed": "",
		"FAC_smokingAllowed": "",
		"FAC_isIndoor": "",
		"GEO_latitude": 46.0701296,
		"GEO_longitude": 11.1117611,
		"GEO_altitude": "",
		"GEO_address": "Via Papiria, 8, 38122 Trento TN",
		"GEO_addressLocality": "WHAT IS IT??",
		"GEO_addressRegion": "WHAT IS IT???",
		"GEO_postalCode": "38121",
		"GEO_locationText": "Teatro Portland; Via Papiria, 8"
	},
	{
		"FAC_name": "Sala conferenze del Mart",
		"FAC_telephone": "0464 454132",
		"FAC_website": "",
		"FAC_mail": "No email from google to avoid spamming",
		"FAC_hasParking": "",
		"FAC_animalsAllowed": "",
		"FAC_smokingAllowed": "",
		"FAC_isIndoor": "",
		"GEO_latitude": 45.89421569999999,
		"GEO_longitude": 11.0446996,
		"GEO_altitude": "",
		"GEO_address": "38068 Rovereto, Province of Trento",
		"GEO_addressLocality": "WHAT IS IT??",
		"GEO_addressRegion": "WHAT IS IT???",
		"GEO_postalCode": "38068",
		"GEO_locationText": "Mart, Sala conferenze"
	},
	{
		"FAC_name": "FAI - Castello di Avio",
		"FAC_telephone": "0464 684453",
		"FAC_website": "http://www.castellodiavio.it/",
		"FAC_mail": "No email from google to avoid spamming",
		"FAC_hasParking": "",
		"FAC_animalsAllowed": "",
		"FAC_smokingAllowed": "",
		"FAC_isIndoor": "",
		"GEO_latitude": 45.8168437,
		"GEO_longitude": 11.0120515,
		"GEO_altitude": "",
		"GEO_address": "Via al Castello, 38063 Sabbionara TN",
		"GEO_addressLocality": "WHAT IS IT??",
		"GEO_addressRegion": "WHAT IS IT???",
		"GEO_postalCode": "38063",
		"GEO_locationText": "Castello di Avio; via al castello; Avio"
	},
	{
		"GEO_latitude": 45.9268706,
		"GEO_longitude": 10.9097607,
		"GEO_altitude": "",
		"GEO_address": "38062 Arco, Province of Trento",
		"GEO_addressLocality": "WHAT IS IT??",
		"GEO_addressRegion": "WHAT IS IT???",
		"GEO_postalCode": "38062",
		"GEO_locationText": "Arco"
	},
	{
		"FAC_name": "Piazza del Duomo",
		"FAC_telephone": "",
		"FAC_website": "",
		"FAC_mail": "No email from google to avoid spamming",
		"FAC_hasParking": "",
		"FAC_animalsAllowed": "",
		"FAC_smokingAllowed": "",
		"FAC_isIndoor": "",
		"GEO_latitude": 43.7730912,
		"GEO_longitude": 11.2554649,
		"GEO_altitude": "",
		"GEO_address": "Piazza del Duomo, 50122 Firenze FI",
		"GEO_addressLocality": "WHAT IS IT??",
		"GEO_addressRegion": "WHAT IS IT???",
		"GEO_postalCode": "50122",
		"GEO_locationText": "Centro Storico; Piazza del Duomo"
	},
	{
		"GEO_latitude": 46.27468210000001,
		"GEO_longitude": 11.0481459,
		"GEO_altitude": "",
		"GEO_address": "38010 Denno, Province of Trento",
		"GEO_addressLocality": "WHAT IS IT??",
		"GEO_addressRegion": "WHAT IS IT???",
		"GEO_postalCode": "38010",
		"GEO_locationText": "Denno"
	},
	{
		"GEO_latitude": 45.87782430000001,
		"GEO_longitude": 10.8908516,
		"GEO_altitude": "",
		"GEO_address": "38069 Nago\u2013Torbole, Province of Trento",
		"GEO_addressLocality": "WHAT IS IT??",
		"GEO_addressRegion": "WHAT IS IT???",
		"GEO_postalCode": "38069",
		"GEO_locationText": "Torbole sul Garda - Nago"
	},
	{
		"GEO_latitude": 46.1080128,
		"GEO_longitude": 11.1115948,
		"GEO_altitude": "",
		"GEO_address": "Via Laurence Feininger, 4, 38121 Trento TN",
		"GEO_addressLocality": "WHAT IS IT??",
		"GEO_addressRegion": "WHAT IS IT???",
		"GEO_postalCode": "38121",
		"GEO_locationText": "Circolo ACLI GARDOLO; Via Laurence Feininger, 4"
	},
	{
		"GEO_latitude": 45.89096,
		"GEO_longitude": 11.0401399,
		"GEO_altitude": "",
		"GEO_address": "38068 Rovereto, Province of Trento",
		"GEO_addressLocality": "WHAT IS IT??",
		"GEO_addressRegion": "WHAT IS IT???",
		"GEO_postalCode": "38068",
		"GEO_locationText": "Rovereto"
	},
	{
		"FAC_name": "Museum of Modern and Contemporary Art of Trento and Rovereto",
		"FAC_telephone": "0464 438887",
		"FAC_website": "http://www.mart.trento.it/",
		"FAC_mail": "No email from google to avoid spamming",
		"FAC_hasParking": "",
		"FAC_animalsAllowed": "",
		"FAC_smokingAllowed": "",
		"FAC_isIndoor": "",
		"GEO_latitude": 45.8939992,
		"GEO_longitude": 11.0446889,
		"GEO_altitude": "",
		"GEO_address": "Corso Angelo Bettini, 43, 38068 Rovereto TN",
		"GEO_addressLocality": "WHAT IS IT??",
		"GEO_addressRegion": "WHAT IS IT???",
		"GEO_postalCode": "38068",
		"GEO_locationText": "Mart, Sale espositive"
	},
	{
		"GEO_latitude": 45.9296906,
		"GEO_longitude": 11.067229,
		"GEO_altitude": "",
		"GEO_address": "38060 Nomi, Trentino, Province of Trento",
		"GEO_addressLocality": "WHAT IS IT??",
		"GEO_addressRegion": "WHAT IS IT???",
		"GEO_postalCode": "38060",
		"GEO_locationText": "Villa Lagarina, Nomi, Pomarolo"
	},
	{
		"FAC_name": "Santa Maria Maggiore, Trento",
		"FAC_telephone": "0461 230037",
		"FAC_website": "http://www.comune.trento.it/Aree-tematiche/Turismo/Visitare/Chiese/Basilica-di-Santa-Maria-Maggiore",
		"FAC_mail": "No email from google to avoid spamming",
		"FAC_hasParking": "",
		"FAC_animalsAllowed": "",
		"FAC_smokingAllowed": "",
		"FAC_isIndoor": "",
		"GEO_latitude": 46.0686385,
		"GEO_longitude": 11.1194609,
		"GEO_altitude": "",
		"GEO_address": "Vicolo delle Orsoline, 1, 38122 Trento TN",
		"GEO_addressLocality": "WHAT IS IT??",
		"GEO_addressRegion": "WHAT IS IT???",
		"GEO_postalCode": "38122",
		"GEO_locationText": "Chiese della citt\u00e0; Piazza Santa Maria Maggiore"
	},
	{
		"GEO_latitude": 46.3199561,
		"GEO_longitude": 10.8400103,
		"GEO_altitude": "",
		"GEO_address": "38020 Commezzadura, Province of Trento",
		"GEO_addressLocality": "WHAT IS IT??",
		"GEO_addressRegion": "WHAT IS IT???",
		"GEO_postalCode": "38020",
		"GEO_locationText": "Commezzadura"
	},
	{
		"FAC_name": "Distilleria Marzadro",
		"FAC_telephone": "0464 304555",
		"FAC_website": "https://www.marzadro.it/",
		"FAC_mail": "No email from google to avoid spamming",
		"FAC_hasParking": "",
		"FAC_animalsAllowed": "",
		"FAC_smokingAllowed": "",
		"FAC_isIndoor": "",
		"GEO_latitude": 45.9089878,
		"GEO_longitude": 11.0281386,
		"GEO_altitude": "",
		"GEO_address": "Via per Brancolino, 10, 38060 Nogaredo TN",
		"GEO_addressLocality": "WHAT IS IT??",
		"GEO_addressRegion": "WHAT IS IT???",
		"GEO_postalCode": "38060",
		"GEO_locationText": "Distilleria Marzadro; Strada Provinciale 90; Isera"
	},
	{
		"GEO_latitude": 45.9509207,
		"GEO_longitude": 11.0201642,
		"GEO_altitude": "",
		"GEO_address": "Lago di Cei, 38060 Villa Lagarina, Province of Trento",
		"GEO_addressLocality": "WHAT IS IT??",
		"GEO_addressRegion": "WHAT IS IT???",
		"GEO_postalCode": "38060",
		"GEO_locationText": "Villa Lagarina - Lago di Cei"
	},
	{
		"FAC_name": "Museo S.A.S.S. Spazio Archeologico Sotterraneo del Sas",
		"FAC_telephone": "0461 230171",
		"FAC_website": "https://www.cultura.trentino.it/Temi/Archeologia",
		"FAC_mail": "No email from google to avoid spamming",
		"FAC_hasParking": "",
		"FAC_animalsAllowed": "",
		"FAC_smokingAllowed": "",
		"FAC_isIndoor": "",
		"GEO_latitude": 46.0695538,
		"GEO_longitude": 11.1236897,
		"GEO_altitude": "",
		"GEO_address": "Piazza Cesare Battisti, 38122 Trento TN",
		"GEO_addressLocality": "WHAT IS IT??",
		"GEO_addressRegion": "WHAT IS IT???",
		"GEO_postalCode": "38122",
		"GEO_locationText": "Spazio Archeologico Sotterraneo del SAS; Piazza Cesare Battisti"
	},
	{
		"GEO_latitude": 46.0688273,
		"GEO_longitude": 10.9824757,
		"GEO_altitude": "",
		"GEO_address": "Piazza di S. Vigilio, 38070 Santa Massenza TN",
		"GEO_addressLocality": "WHAT IS IT??",
		"GEO_addressRegion": "WHAT IS IT???",
		"GEO_postalCode": "38070",
		"GEO_locationText": "Trentino-Alto Adige, Italy; Piazza di San Vigilio; Calavino"
	},
	{
		"FAC_name": "Museum of Modern and Contemporary Art of Trento and Rovereto",
		"FAC_telephone": "0464 438887",
		"FAC_website": "http://www.mart.trento.it/",
		"FAC_mail": "No email from google to avoid spamming",
		"FAC_hasParking": "",
		"FAC_animalsAllowed": "",
		"FAC_smokingAllowed": "",
		"FAC_isIndoor": "",
		"GEO_latitude": 45.8939992,
		"GEO_longitude": 11.0446889,
		"GEO_altitude": "",
		"GEO_address": "Corso Angelo Bettini, 43, 38068 Rovereto TN",
		"GEO_addressLocality": "WHAT IS IT??",
		"GEO_addressRegion": "WHAT IS IT???",
		"GEO_postalCode": "38068",
		"GEO_locationText": "Mart, sale espositive"
	},
	{
		"GEO_latitude": 46.4767277,
		"GEO_longitude": 11.7703015,
		"GEO_altitude": "",
		"GEO_address": "38032 Canazei, Province of Trento",
		"GEO_addressLocality": "WHAT IS IT??",
		"GEO_addressRegion": "WHAT IS IT???",
		"GEO_postalCode": "38032",
		"GEO_locationText": "Canazei"
	},
	{
		"GEO_latitude": 45.89096,
		"GEO_longitude": 11.0401399,
		"GEO_altitude": "",
		"GEO_address": "38068 Rovereto, Province of Trento",
		"GEO_addressLocality": "WHAT IS IT??",
		"GEO_addressRegion": "WHAT IS IT???",
		"GEO_postalCode": "38068",
		"GEO_locationText": "Rovereto, Terragnolo"
	},
	{
		"GEO_latitude": 46.1757686,
		"GEO_longitude": 11.8283805,
		"GEO_altitude": "",
		"GEO_address": "38054 Fiera di Primiero, Province of Trento",
		"GEO_addressLocality": "WHAT IS IT??",
		"GEO_addressRegion": "WHAT IS IT???",
		"GEO_postalCode": "38054",
		"GEO_locationText": "Primiero - Imer"
	},
	{
		"GEO_latitude": 46.42086339999999,
		"GEO_longitude": 11.6748775,
		"GEO_altitude": "",
		"GEO_address": "38039 Vigo di Fassa, Province of Trento",
		"GEO_addressLocality": "WHAT IS IT??",
		"GEO_addressRegion": "WHAT IS IT???",
		"GEO_postalCode": "38039",
		"GEO_locationText": "Vigo di Fassa"
	},
	{
		"FAC_name": "Via Garibaldi",
		"FAC_telephone": "",
		"FAC_website": "",
		"FAC_mail": "No email from google to avoid spamming",
		"FAC_hasParking": "",
		"FAC_animalsAllowed": "",
		"FAC_smokingAllowed": "",
		"FAC_isIndoor": "",
		"GEO_latitude": 44.4110755,
		"GEO_longitude": 8.933145,
		"GEO_altitude": "",
		"GEO_address": "Via Garibaldi, 16124 Genova GE",
		"GEO_addressLocality": "WHAT IS IT??",
		"GEO_addressRegion": "WHAT IS IT???",
		"GEO_postalCode": "16124",
		"GEO_locationText": "Centro Storico; Via Giuseppe Garibaldi"
	},
	{
		"FAC_name": "Consorzio Rovereto In Centro",
		"FAC_telephone": "0464 424047",
		"FAC_website": "http://www.roveretoincentro.com/",
		"FAC_mail": "No email from google to avoid spamming",
		"FAC_hasParking": "",
		"FAC_animalsAllowed": "",
		"FAC_smokingAllowed": "",
		"FAC_isIndoor": "",
		"GEO_latitude": 45.8927082,
		"GEO_longitude": 11.0436527,
		"GEO_altitude": "",
		"GEO_address": "Corso Angelo, Corso Bettini, 64, 38068 Rovereto TN",
		"GEO_addressLocality": "WHAT IS IT??",
		"GEO_addressRegion": "WHAT IS IT???",
		"GEO_postalCode": "38068",
		"GEO_locationText": "centro storico; Corso Bettini; Rovereto"
	},
	{
		"GEO_latitude": 45.9117544,
		"GEO_longitude": 10.6134314,
		"GEO_altitude": "",
		"GEO_address": "38082 Cimego, Province of Trento",
		"GEO_addressLocality": "WHAT IS IT??",
		"GEO_addressRegion": "WHAT IS IT???",
		"GEO_postalCode": "38082",
		"GEO_locationText": "Cimego"
	},
	{
		"FAC_name": "Supercinema Vittoria",
		"FAC_telephone": "0461 261819",
		"FAC_website": "http://www.cineworldtrento.it/",
		"FAC_mail": "No email from google to avoid spamming",
		"FAC_hasParking": "",
		"FAC_animalsAllowed": "",
		"FAC_smokingAllowed": "",
		"FAC_isIndoor": "",
		"GEO_latitude": 46.06987820000001,
		"GEO_longitude": 11.1240854,
		"GEO_altitude": "",
		"GEO_address": "Via Giannantonio Manci, 72, 38122 Trento TN",
		"GEO_addressLocality": "WHAT IS IT??",
		"GEO_addressRegion": "WHAT IS IT???",
		"GEO_postalCode": "38122",
		"GEO_locationText": "Trento - Supercinema VittoriaVia Manci, 72 \u2013 Trento"
	},
	{
		"FAC_name": "Parco Asburgico Secolare di Levico Terme",
		"FAC_telephone": "",
		"FAC_website": "http://www.naturambiente.provincia.tn.it/parco_levico/",
		"FAC_mail": "No email from google to avoid spamming",
		"FAC_hasParking": "",
		"FAC_animalsAllowed": "",
		"FAC_smokingAllowed": "",
		"FAC_isIndoor": "",
		"GEO_latitude": 46.0097207,
		"GEO_longitude": 11.3061366,
		"GEO_altitude": "",
		"GEO_address": "Via Guglielmo Marconi, 38056 Levico Terme TN",
		"GEO_addressLocality": "WHAT IS IT??",
		"GEO_addressRegion": "WHAT IS IT???",
		"GEO_postalCode": "38056",
		"GEO_locationText": "Parco Asburgico; Via Guglielmo Marconi; Levico Terme"
	},
	{
		"FAC_name": "Museum of Modern and Contemporary Art of Trento and Rovereto",
		"FAC_telephone": "0464 438887",
		"FAC_website": "http://www.mart.trento.it/",
		"FAC_mail": "No email from google to avoid spamming",
		"FAC_hasParking": "",
		"FAC_animalsAllowed": "",
		"FAC_smokingAllowed": "",
		"FAC_isIndoor": "",
		"GEO_latitude": 45.8939992,
		"GEO_longitude": 11.0446889,
		"GEO_altitude": "",
		"GEO_address": "Corso Angelo Bettini, 43, 38068 Rovereto TN",
		"GEO_addressLocality": "WHAT IS IT??",
		"GEO_addressRegion": "WHAT IS IT???",
		"GEO_postalCode": "38068",
		"GEO_locationText": "Mart, Rovereto"
	},
	{
		"FAC_name": "Museum of Modern and Contemporary Art of Trento and Rovereto",
		"FAC_telephone": "0464 438887",
		"FAC_website": "http://www.mart.trento.it/",
		"FAC_mail": "No email from google to avoid spamming",
		"FAC_hasParking": "",
		"FAC_animalsAllowed": "",
		"FAC_smokingAllowed": "",
		"FAC_isIndoor": "",
		"GEO_latitude": 45.8939992,
		"GEO_longitude": 11.0446889,
		"GEO_altitude": "",
		"GEO_address": "Corso Angelo Bettini, 43, 38068 Rovereto TN",
		"GEO_addressLocality": "WHAT IS IT??",
		"GEO_addressRegion": "WHAT IS IT???",
		"GEO_postalCode": "38068",
		"GEO_locationText": "Mart - Museo di Arte Moderna e Contemporanea; Corso Bettini; Rovereto"
	},
	{
		"FAC_name": "MUSE",
		"FAC_telephone": "0461 270311",
		"FAC_website": "https://www.muse.it/",
		"FAC_mail": "No email from google to avoid spamming",
		"FAC_hasParking": "",
		"FAC_animalsAllowed": "",
		"FAC_smokingAllowed": "",
		"FAC_isIndoor": "",
		"GEO_latitude": 46.0626048,
		"GEO_longitude": 11.1145374,
		"GEO_altitude": "",
		"GEO_address": "Corso del Lavoro e della Scienza, 3, 38122 Trento TN",
		"GEO_addressLocality": "WHAT IS IT??",
		"GEO_addressRegion": "WHAT IS IT???",
		"GEO_postalCode": "38121",
		"GEO_locationText": "Muse, Trento"
	},
	{
		"FAC_name": "MUSE",
		"FAC_telephone": "0461 270311",
		"FAC_website": "https://www.muse.it/",
		"FAC_mail": "No email from google to avoid spamming",
		"FAC_hasParking": "",
		"FAC_animalsAllowed": "",
		"FAC_smokingAllowed": "",
		"FAC_isIndoor": "",
		"GEO_latitude": 46.0626048,
		"GEO_longitude": 11.1145374,
		"GEO_altitude": "",
		"GEO_address": "Corso del Lavoro e della Scienza, 3, 38122 Trento TN",
		"GEO_addressLocality": "WHAT IS IT??",
		"GEO_addressRegion": "WHAT IS IT???",
		"GEO_postalCode": "38121",
		"GEO_locationText": "Attivit\u00e0 sul territorio"
	},
	{
		"FAC_name": "MUSE",
		"FAC_telephone": "0461 270311",
		"FAC_website": "https://www.muse.it/",
		"FAC_mail": "No email from google to avoid spamming",
		"FAC_hasParking": "",
		"FAC_animalsAllowed": "",
		"FAC_smokingAllowed": "",
		"FAC_isIndoor": "",
		"GEO_latitude": 46.0626048,
		"GEO_longitude": 11.1145374,
		"GEO_altitude": "",
		"GEO_address": "Corso del Lavoro e della Scienza, 3, 38122 Trento TN",
		"GEO_addressLocality": "WHAT IS IT??",
		"GEO_addressRegion": "WHAT IS IT???",
		"GEO_postalCode": "38121",
		"GEO_locationText": "Muse"
	},
	{
		"GEO_latitude": 46.06499039999999,
		"GEO_longitude": 11.1247026,
		"GEO_altitude": "",
		"GEO_address": "Piazza di Fiera, 38122 Trento TN",
		"GEO_addressLocality": "WHAT IS IT??",
		"GEO_addressRegion": "WHAT IS IT???",
		"GEO_postalCode": "38122",
		"GEO_locationText": "Piazza Fiera; Piazza di Fiera"
	},
	{
		"FAC_name": "Castle of Castellano",
		"FAC_telephone": "349 711 9977",
		"FAC_website": "https://www.visitrovereto.it/scopri/castelli/castello-di-castellano/",
		"FAC_mail": "No email from google to avoid spamming",
		"FAC_hasParking": "",
		"FAC_animalsAllowed": "",
		"FAC_smokingAllowed": "",
		"FAC_isIndoor": "",
		"GEO_latitude": 45.9211919,
		"GEO_longitude": 11.0064004,
		"GEO_altitude": "",
		"GEO_address": "Viale Lodron, 17, 38060 Castellano TN",
		"GEO_addressLocality": "WHAT IS IT??",
		"GEO_addressRegion": "WHAT IS IT???",
		"GEO_postalCode": "38060",
		"GEO_locationText": "Castellano; via al castello; Villa Lagarina"
	},
	{
		"GEO_latitude": 46.26176419999999,
		"GEO_longitude": 11.8002183,
		"GEO_altitude": "",
		"GEO_address": "38054 San Martino di Castrozza, Province of Trento",
		"GEO_addressLocality": "WHAT IS IT??",
		"GEO_addressRegion": "WHAT IS IT???",
		"GEO_postalCode": "38054",
		"GEO_locationText": "San Martino di Castrozza"
	},
	{
		"GEO_latitude": 46.30530900000001,
		"GEO_longitude": 11.4579089,
		"GEO_altitude": "",
		"GEO_address": "38030 Varena, Trentino, Province of Trento",
		"GEO_addressLocality": "WHAT IS IT??",
		"GEO_addressRegion": "WHAT IS IT???",
		"GEO_postalCode": "38030",
		"GEO_locationText": "Varena"
	},
	{
		"GEO_latitude": 45.8904808,
		"GEO_longitude": 11.0433908,
		"GEO_altitude": "",
		"GEO_address": "Piazza Antonio Rosmini, 18, 38068 Rovereto TN",
		"GEO_addressLocality": "WHAT IS IT??",
		"GEO_addressRegion": "WHAT IS IT???",
		"GEO_postalCode": "38068",
		"GEO_locationText": "Piazza Rosmini 18/A. Rovereto (TN)"
	},
	{
		"GEO_latitude": 46.312589,
		"GEO_longitude": 11.602437,
		"GEO_altitude": "",
		"GEO_address": "38037 Predazzo, Province of Trento",
		"GEO_addressLocality": "WHAT IS IT??",
		"GEO_addressRegion": "WHAT IS IT???",
		"GEO_postalCode": "38037",
		"GEO_locationText": "Predazzo"
	},
	{
		"FAC_name": "Buonconsiglio Castle Museum",
		"FAC_telephone": "0461 233770",
		"FAC_website": "http://www.buonconsiglio.it/",
		"FAC_mail": "No email from google to avoid spamming",
		"FAC_hasParking": "",
		"FAC_animalsAllowed": "",
		"FAC_smokingAllowed": "",
		"FAC_isIndoor": "",
		"GEO_latitude": 46.07154999999999,
		"GEO_longitude": 11.126608,
		"GEO_altitude": "",
		"GEO_address": "Via Bernardo Clesio, 5, 38122 Trento TN",
		"GEO_addressLocality": "WHAT IS IT??",
		"GEO_addressRegion": "WHAT IS IT???",
		"GEO_postalCode": "38122",
		"GEO_locationText": "Castello del Buonconsiglio; Via Bernardo Clesio"
	},
	{
		"FAC_name": "Teatro di Meano",
		"FAC_telephone": "0461 534321",
		"FAC_website": "http://www.teatrodimeano.it/",
		"FAC_mail": "No email from google to avoid spamming",
		"FAC_hasParking": "",
		"FAC_animalsAllowed": "",
		"FAC_smokingAllowed": "",
		"FAC_isIndoor": "",
		"GEO_latitude": 46.1268463,
		"GEO_longitude": 11.1163055,
		"GEO_altitude": "",
		"GEO_address": "Via delle Sugarine, 22, 38121 Meano TN",
		"GEO_addressLocality": "WHAT IS IT??",
		"GEO_addressRegion": "WHAT IS IT???",
		"GEO_postalCode": "38121",
		"GEO_locationText": "Teatro di Meano; Via delle Sugarine, 22"
	},
	{
		"GEO_latitude": 46.068487,
		"GEO_longitude": 11.1188283,
		"GEO_altitude": "",
		"GEO_address": "Piazza Santa Maria Maggiore, 38122 Trento TN",
		"GEO_addressLocality": "WHAT IS IT??",
		"GEO_addressRegion": "WHAT IS IT???",
		"GEO_postalCode": "38122",
		"GEO_locationText": "Piazza Santa Maria Maggiore; Piazza Santa Maria Maggiore"
	},
	{
		"GEO_latitude": 46.0415587,
		"GEO_longitude": 11.1329949,
		"GEO_altitude": "",
		"GEO_address": "Via Angelo Bettini, 11, 38123 Trento TN",
		"GEO_addressLocality": "WHAT IS IT??",
		"GEO_addressRegion": "WHAT IS IT???",
		"GEO_postalCode": "38123",
		"GEO_locationText": "parrocchia di Madonna Bianca; Via Angelo Bettini, 11"
	},
	{
		"FAC_name": "Albere Palace",
		"FAC_telephone": "0461 496914",
		"FAC_website": "https://www.cultura.trentino.it/Luoghi/Tutti-i-luoghi-della-cultura/Palazzi-storici/Palazzo-delle-Albere",
		"FAC_mail": "No email from google to avoid spamming",
		"FAC_hasParking": "",
		"FAC_animalsAllowed": "",
		"FAC_smokingAllowed": "",
		"FAC_isIndoor": "",
		"GEO_latitude": 46.0631566,
		"GEO_longitude": 11.1137877,
		"GEO_altitude": "",
		"GEO_address": "Via Roberto da Sanseverino, 43, 38122 Trento TN",
		"GEO_addressLocality": "WHAT IS IT??",
		"GEO_addressRegion": "WHAT IS IT???",
		"GEO_postalCode": "38121",
		"GEO_locationText": "Quartiere Le Albere; Via Roberto da Sanseverino"
	},
	{
		"FAC_name": "Giardino dei Ciucioi",
		"FAC_telephone": "327 766 0813",
		"FAC_website": "http://www.ecoargentario.it/",
		"FAC_mail": "No email from google to avoid spamming",
		"FAC_hasParking": "",
		"FAC_animalsAllowed": "",
		"FAC_smokingAllowed": "",
		"FAC_isIndoor": "",
		"GEO_latitude": 46.1387805,
		"GEO_longitude": 11.1179099,
		"GEO_altitude": "",
		"GEO_address": "Vicolo dei Ciucioi, 38015 Lavis TN",
		"GEO_addressLocality": "WHAT IS IT??",
		"GEO_addressRegion": "WHAT IS IT???",
		"GEO_postalCode": "38015",
		"GEO_locationText": "Giardino dei Ciucioi; Piazza Venezia, 2; Lavarone"
	},
	{
		"GEO_latitude": 46.4365458,
		"GEO_longitude": 11.1401368,
		"GEO_altitude": "",
		"GEO_address": "38013 Fondo, Province of Trento",
		"GEO_addressLocality": "WHAT IS IT??",
		"GEO_addressRegion": "WHAT IS IT???",
		"GEO_postalCode": "38013",
		"GEO_locationText": "Fondo"
	},
	{
		"GEO_latitude": 46.06174,
		"GEO_longitude": 11.2369603,
		"GEO_altitude": "",
		"GEO_address": "38057 Pergine Valsugana, Province of Trento",
		"GEO_addressLocality": "WHAT IS IT??",
		"GEO_addressRegion": "WHAT IS IT???",
		"GEO_postalCode": "38057",
		"GEO_locationText": "Pergine Valsugana"
	},
	{
		"GEO_latitude": 46.0802175,
		"GEO_longitude": 11.0014092,
		"GEO_altitude": "",
		"GEO_address": "38070 Vezzano, Province of Trento",
		"GEO_addressLocality": "WHAT IS IT??",
		"GEO_addressRegion": "WHAT IS IT???",
		"GEO_postalCode": "38070",
		"GEO_locationText": "Vezzano"
	},
	{
		"GEO_latitude": 46.4573084,
		"GEO_longitude": 11.6996124,
		"GEO_altitude": "",
		"GEO_address": "38030 Mazzin, Province of Trento",
		"GEO_addressLocality": "WHAT IS IT??",
		"GEO_addressRegion": "WHAT IS IT???",
		"GEO_postalCode": "38030",
		"GEO_locationText": "Campitello di Fassa, Canazei, Mazzin ..."
	},
	{
		"GEO_latitude": 45.7905752,
		"GEO_longitude": 11.1253551,
		"GEO_altitude": "",
		"GEO_address": "38060 Vallarsa, Province of Trento",
		"GEO_addressLocality": "WHAT IS IT??",
		"GEO_addressRegion": "WHAT IS IT???",
		"GEO_postalCode": "38060",
		"GEO_locationText": "Vallarsa"
	},
	{
		"GEO_latitude": 46.4767783,
		"GEO_longitude": 11.7703649,
		"GEO_altitude": "",
		"GEO_address": "Canazei TN",
		"GEO_addressLocality": "WHAT IS IT??",
		"GEO_addressRegion": "WHAT IS IT???",
		"GEO_postalCode": "38032",
		"GEO_locationText": "Campitello di Fassa, Canazei, Moena ..."
	},
	{
		"GEO_latitude": 46.37642,
		"GEO_longitude": 11.6615999,
		"GEO_altitude": "",
		"GEO_address": "38035 Moena, Province of Trento",
		"GEO_addressLocality": "WHAT IS IT??",
		"GEO_addressRegion": "WHAT IS IT???",
		"GEO_postalCode": "38035",
		"GEO_locationText": "Moena"
	},
	{
		"FAC_name": "Azienda per il Turismo della Val di Fassa",
		"FAC_telephone": "0462 609500",
		"FAC_website": "http://www.fassa.com/",
		"FAC_mail": "No email from google to avoid spamming",
		"FAC_hasParking": "",
		"FAC_animalsAllowed": "",
		"FAC_smokingAllowed": "",
		"FAC_isIndoor": "",
		"GEO_latitude": 46.4765319,
		"GEO_longitude": 11.7691361,
		"GEO_altitude": "",
		"GEO_address": "Str\u00e8da Roma, 36, 38032 Canazei TN",
		"GEO_addressLocality": "WHAT IS IT??",
		"GEO_addressRegion": "WHAT IS IT???",
		"GEO_postalCode": "38032",
		"GEO_locationText": "Campitello di Fassa, Canazei"
	},
	{
		"FAC_name": "Fraveggio Di Vezzano",
		"FAC_telephone": "",
		"FAC_website": "",
		"FAC_mail": "No email from google to avoid spamming",
		"FAC_hasParking": "",
		"FAC_animalsAllowed": "",
		"FAC_smokingAllowed": "",
		"FAC_isIndoor": "",
		"GEO_latitude": 46.0802471,
		"GEO_longitude": 10.9932419,
		"GEO_altitude": "",
		"GEO_address": "Via di Castin, 6, 38070 Vezzano TN",
		"GEO_addressLocality": "WHAT IS IT??",
		"GEO_addressRegion": "WHAT IS IT???",
		"GEO_postalCode": "38070",
		"GEO_locationText": "Centro Storico; Indirizzo non disponibile; Vezzano"
	},
	{
		"FAC_name": "Albere Palace",
		"FAC_telephone": "0461 496914",
		"FAC_website": "https://www.cultura.trentino.it/Luoghi/Tutti-i-luoghi-della-cultura/Palazzi-storici/Palazzo-delle-Albere",
		"FAC_mail": "No email from google to avoid spamming",
		"FAC_hasParking": "",
		"FAC_animalsAllowed": "",
		"FAC_smokingAllowed": "",
		"FAC_isIndoor": "",
		"GEO_latitude": 46.0631566,
		"GEO_longitude": 11.1137877,
		"GEO_altitude": "",
		"GEO_address": "Via Roberto da Sanseverino, 43, 38122 Trento TN",
		"GEO_addressLocality": "WHAT IS IT??",
		"GEO_addressRegion": "WHAT IS IT???",
		"GEO_postalCode": "38121",
		"GEO_locationText": "Palazzo delle Albere; Via Roberto da Sanseverino"
	},
	{
		"GEO_latitude": 46.4907862,
		"GEO_longitude": 11.7123873,
		"GEO_altitude": "",
		"GEO_address": "38031 Campitello di Fassa, Province of Trento",
		"GEO_addressLocality": "WHAT IS IT??",
		"GEO_addressRegion": "WHAT IS IT???",
		"GEO_postalCode": "38031",
		"GEO_locationText": "Campitello di Fassa"
	},
	{
		"GEO_latitude": 46.01302399999999,
		"GEO_longitude": 11.2977599,
		"GEO_altitude": "",
		"GEO_address": "38056 Levico Terme, Province of Trento",
		"GEO_addressLocality": "WHAT IS IT??",
		"GEO_addressRegion": "WHAT IS IT???",
		"GEO_postalCode": "38056",
		"GEO_locationText": "Levico Terme"
	},
	{
		"GEO_latitude": 46.0023334,
		"GEO_longitude": 11.2247758,
		"GEO_altitude": "",
		"GEO_address": "38049 Bosentino, Province of Trento",
		"GEO_addressLocality": "WHAT IS IT??",
		"GEO_addressRegion": "WHAT IS IT???",
		"GEO_postalCode": "38049",
		"GEO_locationText": "Bosentino"
	},
	{
		"FAC_name": "Liceo Andrea Maffei",
		"FAC_telephone": "0464 553511",
		"FAC_website": "http://e.liceomaffei.it/",
		"FAC_mail": "No email from google to avoid spamming",
		"FAC_hasParking": "",
		"FAC_animalsAllowed": "",
		"FAC_smokingAllowed": "",
		"FAC_isIndoor": "",
		"GEO_latitude": 45.887436,
		"GEO_longitude": 10.844791,
		"GEO_altitude": "",
		"GEO_address": "Viale Lutti Alberti, 7, 38066 Riva del Garda TN",
		"GEO_addressLocality": "WHAT IS IT??",
		"GEO_addressRegion": "WHAT IS IT???",
		"GEO_postalCode": "38066",
		"GEO_locationText": "centro storico; Via Andrea Maffei; Riva del Garda"
	},
	{
		"GEO_latitude": 46.0710383,
		"GEO_longitude": 11.1248052,
		"GEO_altitude": "",
		"GEO_address": "Via del Suffragio, 38122 Trento TN",
		"GEO_addressLocality": "WHAT IS IT??",
		"GEO_addressRegion": "WHAT IS IT???",
		"GEO_postalCode": "38122",
		"GEO_locationText": "Via del Suffragio; Via del Suffragio"
	},
	{
		"GEO_latitude": 46.2895689,
		"GEO_longitude": 11.5079659,
		"GEO_altitude": "",
		"GEO_address": "38038 Tesero, Province of Trento",
		"GEO_addressLocality": "WHAT IS IT??",
		"GEO_addressRegion": "WHAT IS IT???",
		"GEO_postalCode": "38038",
		"GEO_locationText": "Tesero"
	},
	{
		"FAC_name": "Bugs Trento",
		"FAC_telephone": "",
		"FAC_website": "http://facebook.com/bugstrento",
		"FAC_mail": "No email from google to avoid spamming",
		"FAC_hasParking": "",
		"FAC_animalsAllowed": "",
		"FAC_smokingAllowed": "",
		"FAC_isIndoor": "",
		"GEO_latitude": 46.06845670000001,
		"GEO_longitude": 11.1252337,
		"GEO_altitude": "",
		"GEO_address": "Largo Giosu\u00e8 Carducci, 51, 38122 Trento TN",
		"GEO_addressLocality": "WHAT IS IT??",
		"GEO_addressRegion": "WHAT IS IT???",
		"GEO_postalCode": "38122",
		"GEO_locationText": "Bugs; Largo Giosu\u00e8 Carducci"
	},
	{
		"FAC_name": "Cinema Teatro Nuovo Roma",
		"FAC_telephone": "0461 261819",
		"FAC_website": "http://www.cineworldtrento.it/",
		"FAC_mail": "No email from google to avoid spamming",
		"FAC_hasParking": "",
		"FAC_animalsAllowed": "",
		"FAC_smokingAllowed": "",
		"FAC_isIndoor": "",
		"GEO_latitude": 46.0614157,
		"GEO_longitude": 11.1248262,
		"GEO_altitude": "",
		"GEO_address": "Corso 3 Novembre 1918, 35, 38122 Trento TN",
		"GEO_addressLocality": "WHAT IS IT??",
		"GEO_addressRegion": "WHAT IS IT???",
		"GEO_postalCode": "38122",
		"GEO_locationText": "Trento - Cinema Teatro Nuovo RomaCorso III Novembre, 35 \u2013 Trento"
	},
	{
		"FAC_name": "Appartamenti Segantini Arco",
		"FAC_telephone": "347 412 0189",
		"FAC_website": "http://appartamentisegantini.com/",
		"FAC_mail": "No email from google to avoid spamming",
		"FAC_hasParking": "",
		"FAC_animalsAllowed": "",
		"FAC_smokingAllowed": "",
		"FAC_isIndoor": "",
		"GEO_latitude": 45.919433,
		"GEO_longitude": 10.8873386,
		"GEO_altitude": "",
		"GEO_address": "Via Giovanni Segantini, 75, 38062 Arco TN",
		"GEO_addressLocality": "WHAT IS IT??",
		"GEO_addressRegion": "WHAT IS IT???",
		"GEO_postalCode": "38062",
		"GEO_locationText": "centro storico; Via Giovanni Segantini; Arco"
	},
	{
		"GEO_latitude": 45.88919839999999,
		"GEO_longitude": 10.8430696,
		"GEO_altitude": "",
		"GEO_address": "38066 Riva del Garda, Province of Trento",
		"GEO_addressLocality": "WHAT IS IT??",
		"GEO_addressRegion": "WHAT IS IT???",
		"GEO_postalCode": "38066",
		"GEO_locationText": "Riva del Garda"
	},
	{
		"GEO_latitude": 45.88919839999999,
		"GEO_longitude": 10.8430696,
		"GEO_altitude": "",
		"GEO_address": "38066 Riva del Garda, Province of Trento",
		"GEO_addressLocality": "WHAT IS IT??",
		"GEO_addressRegion": "WHAT IS IT???",
		"GEO_postalCode": "38066",
		"GEO_locationText": "Arco, Riva del Garda"
	},
	{
		"FAC_name": "Niko Romito Space Milan",
		"FAC_telephone": "02 878400",
		"FAC_website": "http://www.nikoromitoformazione.it/spazio/spazio-milano/",
		"FAC_mail": "No email from google to avoid spamming",
		"FAC_hasParking": "",
		"FAC_animalsAllowed": "",
		"FAC_smokingAllowed": "",
		"FAC_isIndoor": "",
		"GEO_latitude": 45.46473570000001,
		"GEO_longitude": 9.1902571,
		"GEO_altitude": "",
		"GEO_address": "c/o 4\u00b0 piano Mercato del Duomo - Galleria Vittorio Emanuele II, 20121 Milano MI",
		"GEO_addressLocality": "WHAT IS IT??",
		"GEO_addressRegion": "WHAT IS IT???",
		"GEO_postalCode": "20121",
		"GEO_locationText": "Ristoranti della citt\u00e0; Piazza del Duomo"
	},
	{
		"FAC_name": "Auditorium Fausto Melotti",
		"FAC_telephone": "",
		"FAC_website": "http://www.comune.rovereto.tn.it/Entra-in-Comune/Servizi-erogati/Cerca-per-tipologia/Sale-e-spazi-pubblici/Sale-e-spazi-comunali/Auditorium-Fausto-Melotti",
		"FAC_mail": "No email from google to avoid spamming",
		"FAC_hasParking": "",
		"FAC_animalsAllowed": "",
		"FAC_smokingAllowed": "",
		"FAC_isIndoor": "",
		"GEO_latitude": 45.8938485,
		"GEO_longitude": 11.044469,
		"GEO_altitude": "",
		"GEO_address": "Corso Bettini, 43, 38068 Rovereto TN",
		"GEO_addressLocality": "WHAT IS IT??",
		"GEO_addressRegion": "WHAT IS IT???",
		"GEO_postalCode": "38068",
		"GEO_locationText": "\r\nAuditorium Melotti, Rovereto"
	},
	{
		"FAC_name": "Cinema Ossana",
		"FAC_telephone": "",
		"FAC_website": "",
		"FAC_mail": "No email from google to avoid spamming",
		"FAC_hasParking": "",
		"FAC_animalsAllowed": "",
		"FAC_smokingAllowed": "",
		"FAC_isIndoor": "",
		"GEO_latitude": 46.30950499999999,
		"GEO_longitude": 10.7310269,
		"GEO_altitude": "",
		"GEO_address": "Via Bartolomeo Bezzi, 16, 38026 Fucine TN",
		"GEO_addressLocality": "WHAT IS IT??",
		"GEO_addressRegion": "WHAT IS IT???",
		"GEO_postalCode": "38026",
		"GEO_locationText": "Cinema Comunale di Ossana; Via Bartolomeo Bezzi, 12; Ossana"
	},
	{
		"FAC_name": "Hotel Meida - Pozza di Fassa",
		"FAC_telephone": "0462 764283",
		"FAC_website": "http://www.hotelmeida.it/",
		"FAC_mail": "No email from google to avoid spamming",
		"FAC_hasParking": "",
		"FAC_animalsAllowed": "",
		"FAC_smokingAllowed": "",
		"FAC_isIndoor": "",
		"GEO_latitude": 46.4300636,
		"GEO_longitude": 11.6915665,
		"GEO_altitude": "",
		"GEO_address": "strada de Meida, 67, 38036 Pozza di Fassa TN",
		"GEO_addressLocality": "WHAT IS IT??",
		"GEO_addressRegion": "WHAT IS IT???",
		"GEO_postalCode": "38036",
		"GEO_locationText": "Centro Storico; Strada de Meida; Pozza di Fassa"
	},
	{
		"FAC_name": "Palazzo Roccabruna",
		"FAC_telephone": "0461 887101",
		"FAC_website": "http://www.palazzoroccabruna.it/",
		"FAC_mail": "No email from google to avoid spamming",
		"FAC_hasParking": "",
		"FAC_animalsAllowed": "",
		"FAC_smokingAllowed": "",
		"FAC_isIndoor": "",
		"GEO_latitude": 46.066349,
		"GEO_longitude": 11.123444,
		"GEO_altitude": "",
		"GEO_address": "Via Santa Trinit\u00e0, 24, 38122 Trento TN",
		"GEO_addressLocality": "WHAT IS IT??",
		"GEO_addressRegion": "WHAT IS IT???",
		"GEO_postalCode": "38122",
		"GEO_locationText": "Palazzo Roccabruna; Via Santa Trinit\u00e0, 44"
	},
	{
		"FAC_name": "Apartments Moena - Living 2000",
		"FAC_telephone": "0462 573193",
		"FAC_website": "http://www.moena-appartamenti.it/",
		"FAC_mail": "No email from google to avoid spamming",
		"FAC_hasParking": "",
		"FAC_animalsAllowed": "",
		"FAC_smokingAllowed": "",
		"FAC_isIndoor": "",
		"GEO_latitude": 46.37617900000001,
		"GEO_longitude": 11.660669,
		"GEO_altitude": "",
		"GEO_address": "Piaz de Ramon, 59, 38035 Moena TN",
		"GEO_addressLocality": "WHAT IS IT??",
		"GEO_addressRegion": "WHAT IS IT???",
		"GEO_postalCode": "38035",
		"GEO_locationText": "centro storico; Piaz de Ramon; Moena"
	},
	{
		"GEO_latitude": 46.242222,
		"GEO_longitude": 11.5025,
		"GEO_altitude": "",
		"GEO_address": "Cermis, 38033 Cavalese, Province of Trento",
		"GEO_addressLocality": "WHAT IS IT??",
		"GEO_addressRegion": "WHAT IS IT???",
		"GEO_postalCode": "38033",
		"GEO_locationText": "Cavalese, Alpe Cermis, Pampeago-Predazzo-Obereggen ..."
	},
	{
		"GEO_latitude": 46.36553740000001,
		"GEO_longitude": 10.9387742,
		"GEO_altitude": "",
		"GEO_address": "38022 Caldes, Province of Trento",
		"GEO_addressLocality": "WHAT IS IT??",
		"GEO_addressRegion": "WHAT IS IT???",
		"GEO_postalCode": "38022",
		"GEO_locationText": "Caldes"
	},
	{
		"FAC_name": "Castel Pergine",
		"FAC_telephone": "0461 531158",
		"FAC_website": "http://www.castelpergine.it/it/",
		"FAC_mail": "No email from google to avoid spamming",
		"FAC_hasParking": "",
		"FAC_animalsAllowed": "",
		"FAC_smokingAllowed": "",
		"FAC_isIndoor": "",
		"GEO_latitude": 46.05919919999999,
		"GEO_longitude": 11.249821,
		"GEO_altitude": "",
		"GEO_address": "Via al Castello, 10, 38057 Pergine Valsugana TN",
		"GEO_addressLocality": "WHAT IS IT??",
		"GEO_addressRegion": "WHAT IS IT???",
		"GEO_postalCode": "38057",
		"GEO_locationText": "Centro Storico; Indirizzo non disponibile; Pergine Valsugana"
	},
	{
		"FAC_name": "Social Theatre",
		"FAC_telephone": "0461 213862",
		"FAC_website": "http://www.centrosantachiara.it/",
		"FAC_mail": "No email from google to avoid spamming",
		"FAC_hasParking": "",
		"FAC_animalsAllowed": "",
		"FAC_smokingAllowed": "",
		"FAC_isIndoor": "",
		"GEO_latitude": 46.06939060000001,
		"GEO_longitude": 11.1225996,
		"GEO_altitude": "",
		"GEO_address": "Via Paolo Oss-Mazzurana, 19, 38122 Trento TN",
		"GEO_addressLocality": "WHAT IS IT??",
		"GEO_addressRegion": "WHAT IS IT???",
		"GEO_postalCode": "38122",
		"GEO_locationText": "Teatro Sociale; Via Oss Mazzurana"
	},
	{
		"GEO_latitude": 45.9253574,
		"GEO_longitude": 11.341417,
		"GEO_altitude": "",
		"GEO_address": "38040 Luserna, Province of Trento",
		"GEO_addressLocality": "WHAT IS IT??",
		"GEO_addressRegion": "WHAT IS IT???",
		"GEO_postalCode": "38040",
		"GEO_locationText": "Lavarone, Folgaria, Luserna"
	},
	{
		"GEO_latitude": 45.9603668,
		"GEO_longitude": 10.9101973,
		"GEO_altitude": "",
		"GEO_address": "38074 Dro, Province of Trento",
		"GEO_addressLocality": "WHAT IS IT??",
		"GEO_addressRegion": "WHAT IS IT???",
		"GEO_postalCode": "38074",
		"GEO_locationText": "Dro"
	},
	{
		"FAC_name": "Teatro Sanb\u00e0Polis",
		"FAC_telephone": "",
		"FAC_website": "",
		"FAC_mail": "No email from google to avoid spamming",
		"FAC_hasParking": "",
		"FAC_animalsAllowed": "",
		"FAC_smokingAllowed": "",
		"FAC_isIndoor": "",
		"GEO_latitude": 46.0456605,
		"GEO_longitude": 11.1330785,
		"GEO_altitude": "",
		"GEO_address": "Via della Malpensada, 82, 38123 Trento TN",
		"GEO_addressLocality": "WHAT IS IT??",
		"GEO_addressRegion": "WHAT IS IT???",
		"GEO_postalCode": "38123",
		"GEO_locationText": "Teatro Sanbapolis; Via della Malpensada"
	},
	{
		"FAC_name": "EIT Digital Italy",
		"FAC_telephone": "0461 314045",
		"FAC_website": "https://www.eitdigital.eu/",
		"FAC_mail": "No email from google to avoid spamming",
		"FAC_hasParking": "",
		"FAC_animalsAllowed": "",
		"FAC_smokingAllowed": "",
		"FAC_isIndoor": "",
		"GEO_latitude": 46.0677984,
		"GEO_longitude": 11.151339,
		"GEO_altitude": "",
		"GEO_address": "1st floor Northern Building, Via Sommarive, 18, 38123 Povo TN",
		"GEO_addressLocality": "WHAT IS IT??",
		"GEO_addressRegion": "WHAT IS IT???",
		"GEO_postalCode": "38123",
		"GEO_locationText": "EIT Digital Italy Co-Location Centre; Via Sommarive, 18"
	},
	{
		"GEO_latitude": 46.2207428,
		"GEO_longitude": 11.0364617,
		"GEO_altitude": "",
		"GEO_address": "38010 Maurina, Province of Trento, Italy",
		"GEO_addressLocality": "WHAT IS IT??",
		"GEO_addressRegion": "WHAT IS IT???",
		"GEO_postalCode": "38010",
		"GEO_locationText": "Maurina; Indirizzo non disponibile; Spormaggiore"
	},
	{
		"GEO_latitude": 46.3078419,
		"GEO_longitude": 10.7355513,
		"GEO_altitude": "",
		"GEO_address": "38026 Ossana, Province of Trento, Italy",
		"GEO_addressLocality": "WHAT IS IT??",
		"GEO_addressRegion": "WHAT IS IT???",
		"GEO_postalCode": "38026",
		"GEO_locationText": "Centro Storico; Indirizzo non disponibile; Ossana"
	},
	{
		"GEO_latitude": 46.06323520000001,
		"GEO_longitude": 11.0971739,
		"GEO_altitude": "",
		"GEO_address": "Via Gerolamo Bucelleni, 10, 38123 Sardagna TN, Italy",
		"GEO_addressLocality": "WHAT IS IT??",
		"GEO_addressRegion": "WHAT IS IT???",
		"GEO_postalCode": "38123",
		"GEO_locationText": "Sala della circoscrizione di Sardagna; Localita' Sardagna"
	},
	{
		"GEO_latitude": 46.1877609,
		"GEO_longitude": 11.8302311,
		"GEO_altitude": "",
		"GEO_address": "38054 Siror, Province of Trento, Italy",
		"GEO_addressLocality": "WHAT IS IT??",
		"GEO_addressRegion": "WHAT IS IT???",
		"GEO_postalCode": "38054",
		"GEO_locationText": "centro storico; Indirizzo non disponibile; Siror"
	},
	{
		"GEO_latitude": 45.8765359,
		"GEO_longitude": 10.7321478,
		"GEO_altitude": "",
		"GEO_address": "38067 Ledro, Province of Trento, Italy",
		"GEO_addressLocality": "WHAT IS IT??",
		"GEO_addressRegion": "WHAT IS IT???",
		"GEO_postalCode": "38067",
		"GEO_locationText": "Centro Storico; Indirizzo non disponibile; Ledro"
	},
	{
		"GEO_latitude": 45.9117544,
		"GEO_longitude": 10.6134314,
		"GEO_altitude": "",
		"GEO_address": "38082 Cimego, Province of Trento, Italy",
		"GEO_addressLocality": "WHAT IS IT??",
		"GEO_addressRegion": "WHAT IS IT???",
		"GEO_postalCode": "38082",
		"GEO_locationText": "Centro Storico; Indirizzo non disponibile; Cimego"
	},
	{
		"GEO_latitude": 46.2888742,
		"GEO_longitude": 11.5106452,
		"GEO_altitude": "",
		"GEO_address": "Piazza Cesare Battisti, 38038 Tesero TN, Italy",
		"GEO_addressLocality": "WHAT IS IT??",
		"GEO_addressRegion": "WHAT IS IT???",
		"GEO_postalCode": "38038",
		"GEO_locationText": "centro storico; piazza Cesare Battisti; Tesero"
	}
]